[
    {
        "key": "MALMS",
        "latitude": 51.59566855386883,
        "longitude": -2.10574055177729,
        "name": "MALMS"
    },
    {
        "key": "MDC",
        "latitude": 1.623477736599909,
        "longitude": 103.6519262264687,
        "name": "MDC"
    },
    {
        "key": "PAM",
        "latitude": 14.17589751066264,
        "longitude": 121.1204682146297,
        "name": "PAM"
    },
    {
        "key": "STC",
        "latitude": 1.291090399653533,
        "longitude": 103.7847045976343,
        "name": "STC"
    },
    {
        "key": "STL",
        "latitude": 31.212181948951965,
        "longitude": 121.47712094344723
        "name": "STL"
    }
]
