[
    {
        "key": "MALMS",
        "latitude": 51.59566855386883,
        "longitude": -2.10574055177729,
        "name": "MALMS"
    },
    {
        "key": "MDC",
        "latitude": 50.4108,
        "longitude": 4.4446,
        "name": "MDC"
    },
    {
        "key": "PAM",
        "latitude": 41.881832,
        "longitude": -87.623177,
        "name": "PAM"
    },
    {
        "key": "STC",
        "latitude": 32.7767,
        "longitude": -97.040443,
        "name": "STC"
    },
    {
        "key": "STL",
        "latitude": 50.110924,
        "longitude": 8.682127,
        "name": "STL"
    }
]